{
    "type": "FeatureCollection",
    "name": "colegiosnanay",
    "crs": { "type": "name", "properties": { "name": "urn:ogc:def:crs:OGC:1.3:CRS84" } },
    "features": [
    { "type": "Feature", "properties": { "CODLOCAL": "364199", "NOMCPSIG": "MANACAMIRI", "FUENTE_LOC": "MED_GPS", "FTE_LOCD": "SIGMED16", "X_LONGITUD": -73.284347421000007, "Y_LATITUD": -3.717897563, "CORD_YX": "-3.71789756299995-73.284347421", "NALT_LOCAL": 89, "CEN_EDU_L": "316 ENCARNACION HUAMAN GARCIA", "CODCPSIG": "114022" }, "geometry": { "type": "Point", "coordinates": [ -73.28434742099995, -3.717897562999951 ] } },
    { "type": "Feature", "properties": { "CODLOCAL": "364731", "NOMCPSIG": "FRAY MARTIN DE PORRES", "FUENTE_LOC": "MED_GPS", "FTE_LOCD": "SIGMED16", "X_LONGITUD": -73.316315138999997, "Y_LATITUD": -3.715856852, "CORD_YX": "-3.71585685199994-73.316315139", "NALT_LOCAL": 94, "CEN_EDU_L": "592", "CODCPSIG": "531934" }, "geometry": { "type": "Point", "coordinates": [ -73.316315138999983, -3.715856851999945 ] } },
    { "type": "Feature", "properties": { "CODLOCAL": "373250", "NOMCPSIG": "SAN ANDRES", "FUENTE_LOC": "MED_GPS", "FTE_LOCD": "SIGMED16", "X_LONGITUD": -73.291449670999995, "Y_LATITUD": -3.685015963, "CORD_YX": "-3.68501596299996-73.291449671", "NALT_LOCAL": 93, "CEN_EDU_L": "608 BILINGUE INTERCULTURAL", "CODCPSIG": "514627" }, "geometry": { "type": "Point", "coordinates": [ -73.291449670999953, -3.685015962999955 ] } },
    { "type": "Feature", "properties": { "CODLOCAL": "373486", "NOMCPSIG": "MOMONCILLO", "FUENTE_LOC": "MED_GPS", "FTE_LOCD": "SIGMED16", "X_LONGITUD": -73.269942646999993, "Y_LATITUD": -3.673596601, "CORD_YX": "-3.67359660099993-73.2699426469999", "NALT_LOCAL": 95, "CEN_EDU_L": "60109 SANTA ESTEFANIA", "CODCPSIG": "546777" }, "geometry": { "type": "Point", "coordinates": [ -73.269942646999937, -3.673596600999929 ] } },
    { "type": "Feature", "properties": { "CODLOCAL": "373170", "NOMCPSIG": "PORVENIR", "FUENTE_LOC": "MED_GPS", "FTE_LOCD": "SIGMED16", "X_LONGITUD": -73.296375476999998, "Y_LATITUD": -3.656353864, "CORD_YX": "-3.65635386399993-73.296375477", "NALT_LOCAL": 95, "CEN_EDU_L": "446", "CODCPSIG": "620922" }, "geometry": { "type": "Point", "coordinates": [ -73.29637547699997, -3.656353863999925 ] } },
    { "type": "Feature", "properties": { "CODLOCAL": "373108", "NOMCPSIG": "PICURO YACU", "FUENTE_LOC": "MED_GPS", "FTE_LOCD": "SIGMED16", "X_LONGITUD": -73.25894061, "Y_LATITUD": -3.643818088, "CORD_YX": "-3.64381808799993-73.25894061", "NALT_LOCAL": 133, "CEN_EDU_L": "336", "CODCPSIG": "517784" }, "geometry": { "type": "Point", "coordinates": [ -73.258940609999968, -3.643818087999932 ] } },
    { "type": "Feature", "properties": { "CODLOCAL": "373924", "NOMCPSIG": "NUEVO PARAISO", "FUENTE_LOC": "MED_GPS", "FTE_LOCD": "SIGMED16", "X_LONGITUD": -73.464611227000006, "Y_LATITUD": -3.636528252, "CORD_YX": "-3.63652825199995-73.464611227", "NALT_LOCAL": 103, "CEN_EDU_L": "601516", "CODCPSIG": "622316" }, "geometry": { "type": "Point", "coordinates": [ -73.464611226999978, -3.636528251999948 ] } },
    { "type": "Feature", "properties": { "CODLOCAL": "740502", "NOMCPSIG": "SAN JUAN", "FUENTE_LOC": "MED_GPS", "FTE_LOCD": "SIGMED16", "X_LONGITUD": -73.40509342, "Y_LATITUD": -3.612687373, "CORD_YX": "-3.61268737299997-73.40509342", "NALT_LOCAL": 94, "CEN_EDU_L": "60100", "CODCPSIG": "540063" }, "geometry": { "type": "Point", "coordinates": [ -73.405093419999957, -3.612687372999972 ] } },
    { "type": "Feature", "properties": { "CODLOCAL": "373995", "NOMCPSIG": "SANTO TOMAS DE CAPIRONAL", "FUENTE_LOC": "MED_GPS", "FTE_LOCD": "SIGMED16", "X_LONGITUD": -73.36167444, "Y_LATITUD": -3.578536591, "CORD_YX": "-3.57853659099993-73.3616744399999", "NALT_LOCAL": 94, "CEN_EDU_L": "6010159", "CODCPSIG": "614244" }, "geometry": { "type": "Point", "coordinates": [ -73.361674439999945, -3.578536590999931 ] } },
    { "type": "Feature", "properties": { "CODLOCAL": "374061", "NOMCPSIG": "ALFONSO UGARTE", "FUENTE_LOC": "MED_GPS", "FTE_LOCD": "SIGMED16", "X_LONGITUD": -73.33156451000001, "Y_LATITUD": -3.497963813, "CORD_YX": "-3.49796381299996-73.33156451", "NALT_LOCAL": 112, "CEN_EDU_L": "601560", "CODCPSIG": "626117" }, "geometry": { "type": "Point", "coordinates": [ -73.331564509999964, -3.497963812999956 ] } },
    { "type": "Feature", "properties": { "CODLOCAL": "364482", "NOMCPSIG": "SAN PABLO DE CUYANA", "FUENTE_LOC": "MED_GPS", "FTE_LOCD": "SIGMED16", "X_LONGITUD": -73.376361075000005, "Y_LATITUD": -3.766560657, "CORD_YX": "-3.76656065699996-73.376361075", "NALT_LOCAL": 98, "CEN_EDU_L": "478 GRANITOS DE MOSTAZA", "CODCPSIG": "570625" }, "geometry": { "type": "Point", "coordinates": [ -73.376361074999977, -3.766560656999957 ] } },
    { "type": "Feature", "properties": { "CODLOCAL": "402667", "NOMCPSIG": "SANTO TOMAS", "FUENTE_LOC": "MED_GPS", "FTE_LOCD": "SIGMED14", "X_LONGITUD": -73.340547021999996, "Y_LATITUD": -3.804789684, "CORD_YX": "-3.80478968399996-73.340547022", "NALT_LOCAL": 92, "CEN_EDU_L": "SANTO TOMAS", "CODCPSIG": "121057" }, "geometry": { "type": "Point", "coordinates": [ -73.340547021999953, -3.804789683999957 ] } },
    { "type": "Feature", "properties": { "CODLOCAL": "365274", "NOMCPSIG": "MANACAMIRI", "FUENTE_LOC": "MED_GPS", "FTE_LOCD": "SIGMED16", "X_LONGITUD": -73.284567998, "Y_LATITUD": -3.717411486, "CORD_YX": "-3.71741148599995-73.2845679979999", "NALT_LOCAL": 90, "CEN_EDU_L": "60036 LUIS NAVARRO CAUPER", "CODCPSIG": "114022" }, "geometry": { "type": "Point", "coordinates": [ -73.284567997999943, -3.717411485999946 ] } },
    { "type": "Feature", "properties": { "CODLOCAL": "373518", "NOMCPSIG": "PICURO YACU", "FUENTE_LOC": "MED_GPS", "FTE_LOCD": "SIGMED16", "X_LONGITUD": -73.259313186, "Y_LATITUD": -3.644313451, "CORD_YX": "-3.64431345099996-73.259313186", "NALT_LOCAL": 133, "CEN_EDU_L": "60116", "CODCPSIG": "517784" }, "geometry": { "type": "Point", "coordinates": [ -73.259313185999986, -3.64431345099996 ] } },
    { "type": "Feature", "properties": { "CODLOCAL": "366297", "NOMCPSIG": "TRES UNIDOS", "FUENTE_LOC": "MED_GPS", "FTE_LOCD": "SIGMED16", "X_LONGITUD": -73.367086341999993, "Y_LATITUD": -3.741591104, "CORD_YX": "-3.74159110399995-73.3670863419999", "NALT_LOCAL": 133, "CEN_EDU_L": "601384", "CODCPSIG": "532135" }, "geometry": { "type": "Point", "coordinates": [ -73.367086341999936, -3.741591103999951 ] } },
    { "type": "Feature", "properties": { "CODLOCAL": "365863", "NOMCPSIG": "FRAY MARTIN DE PORRES", "FUENTE_LOC": "MED_GPS", "FTE_LOCD": "SIGMED16", "X_LONGITUD": -73.316432696000007, "Y_LATITUD": -3.715100175, "CORD_YX": "-3.71510017499998-73.3164326959999", "NALT_LOCAL": 93, "CEN_EDU_L": "60896", "CODCPSIG": "531934" }, "geometry": { "type": "Point", "coordinates": [ -73.316432695999936, -3.715100174999975 ] } },
    { "type": "Feature", "properties": { "CODLOCAL": "373641", "NOMCPSIG": "NUEVO SAN FERNANDO", "FUENTE_LOC": "MED_GPS", "FTE_LOCD": "SIGMED16", "X_LONGITUD": -73.267399873000002, "Y_LATITUD": -3.695452644, "CORD_YX": "-3.69545264399994-73.267399873", "NALT_LOCAL": 88, "CEN_EDU_L": "60200", "CODCPSIG": "122582" }, "geometry": { "type": "Point", "coordinates": [ -73.267399872999988, -3.695452643999943 ] } },
    { "type": "Feature", "properties": { "CODLOCAL": "373679", "NOMCPSIG": "SAN ANDRES", "FUENTE_LOC": "MED_GPS", "FTE_LOCD": "SIGMED16", "X_LONGITUD": -73.291671707000006, "Y_LATITUD": -3.684698984, "CORD_YX": "-3.68469898399997-73.291671707", "NALT_LOCAL": 90, "CEN_EDU_L": "60799 BILINGUE INTERCULTURAL", "CODCPSIG": "514627" }, "geometry": { "type": "Point", "coordinates": [ -73.291671706999978, -3.684698983999965 ] } },
    { "type": "Feature", "properties": { "CODLOCAL": "373556", "NOMCPSIG": "PROGRESO ZONA 2", "FUENTE_LOC": "MED_GPS", "FTE_LOCD": "SIGMED16", "X_LONGITUD": -73.340092718999998, "Y_LATITUD": -3.672526584, "CORD_YX": "-3.67252658399997-73.340092719", "NALT_LOCAL": 94, "CEN_EDU_L": "60131", "CODCPSIG": "618296" }, "geometry": { "type": "Point", "coordinates": [ -73.340092718999983, -3.672526583999968 ] } },
    { "type": "Feature", "properties": { "CODLOCAL": "373542", "NOMCPSIG": "PORVENIR", "FUENTE_LOC": "MED_GPS", "FTE_LOCD": "SIGMED16", "X_LONGITUD": -73.296747775, "Y_LATITUD": -3.656058869, "CORD_YX": "-3.65605886899993-73.296747775", "NALT_LOCAL": 90, "CEN_EDU_L": "60126", "CODCPSIG": "620922" }, "geometry": { "type": "Point", "coordinates": [ -73.296747774999972, -3.656058868999935 ] } },
    { "type": "Feature", "properties": { "CODLOCAL": "364929", "NOMCPSIG": "SAN PEDRO", "FUENTE_LOC": "MED_GPS", "FTE_LOCD": "SIGMED16", "X_LONGITUD": -73.335397927000002, "Y_LATITUD": -3.752619977, "CORD_YX": "-3.75261997699994-73.335397927", "NALT_LOCAL": 91, "CEN_EDU_L": "694", "CODCPSIG": "240577" }, "geometry": { "type": "Point", "coordinates": [ -73.335397926999974, -3.752619976999938 ] } },
    { "type": "Feature", "properties": { "CODLOCAL": "364255", "NOMCPSIG": "SAN JOSE DE LUPUNA", "FUENTE_LOC": "MED_GPS", "FTE_LOCD": "SIGMED16", "X_LONGITUD": -73.327349604000005, "Y_LATITUD": -3.74337158, "CORD_YX": "-3.74337157999997-73.3273496039999", "NALT_LOCAL": 94, "CEN_EDU_L": "326", "CODCPSIG": "125012" }, "geometry": { "type": "Point", "coordinates": [ -73.327349603999949, -3.743371579999973 ] } },
    { "type": "Feature", "properties": { "CODLOCAL": "364651", "NOMCPSIG": "SANTA RITA", "FUENTE_LOC": "MED_GPS", "FTE_LOCD": "SIGMED16", "X_LONGITUD": -73.324049458000005, "Y_LATITUD": -3.732000834, "CORD_YX": "-3.73200083399996-73.3240494579999", "NALT_LOCAL": 102, "CEN_EDU_L": "544", "CODCPSIG": "129235" }, "geometry": { "type": "Point", "coordinates": [ -73.324049457999934, -3.732000833999962 ] } },
    { "type": "Feature", "properties": { "CODLOCAL": "365783", "NOMCPSIG": "TARAPOTO", "FUENTE_LOC": "MED_GPS", "FTE_LOCD": "SIGMED16", "X_LONGITUD": -73.406151041000001, "Y_LATITUD": -3.804629, "CORD_YX": "-3.80462899999998-73.406151041", "NALT_LOCAL": 100, "CEN_EDU_L": "60754", "CODCPSIG": "125982" }, "geometry": { "type": "Point", "coordinates": [ -73.406151040999987, -3.804629 ] } },
    { "type": "Feature", "properties": { "CODLOCAL": "365226", "NOMCPSIG": "SANTA CLARA", "FUENTE_LOC": "MED_GPS", "FTE_LOCD": "SIGMED16", "X_LONGITUD": -73.339114558000006, "Y_LATITUD": -3.786487254, "CORD_YX": "-3.78648725399995-73.3391145579999", "NALT_LOCAL": 94, "CEN_EDU_L": "60027", "CODCPSIG": "128113" }, "geometry": { "type": "Point", "coordinates": [ -73.339114557999949, -3.786487253999951 ] } },
    { "type": "Feature", "properties": { "CODLOCAL": "366424", "NOMCPSIG": "HUATURI", "FUENTE_LOC": "MED_GPS", "FTE_LOCD": "SIGMED16", "X_LONGITUD": -73.404241638000002, "Y_LATITUD": -3.775583432, "CORD_YX": "-3.77558343199996-73.404241638", "NALT_LOCAL": 97, "CEN_EDU_L": "601442", "CODCPSIG": "130824" }, "geometry": { "type": "Point", "coordinates": [ -73.404241637999974, -3.775583431999962 ] } },
    { "type": "Feature", "properties": { "CODLOCAL": "365504", "NOMCPSIG": "SAN PABLO DE CUYANA", "FUENTE_LOC": "MED_GPS", "FTE_LOCD": "SIGMED16", "X_LONGITUD": -73.375073504, "Y_LATITUD": -3.765708179, "CORD_YX": "-3.76570817899994-73.3750735039999", "NALT_LOCAL": 97, "CEN_EDU_L": "60112", "CODCPSIG": "570625" }, "geometry": { "type": "Point", "coordinates": [ -73.375073503999943, -3.765708178999944 ] } },
    { "type": "Feature", "properties": { "CODLOCAL": "366527", "NOMCPSIG": "8 DE OCTUBRE", "FUENTE_LOC": "MED_GPS", "FTE_LOCD": "SIGMED16", "X_LONGITUD": -73.407424991, "Y_LATITUD": -3.752790795, "CORD_YX": "-3.75279079499995-73.407424991", "NALT_LOCAL": 99, "CEN_EDU_L": "601498", "CODCPSIG": "652672" }, "geometry": { "type": "Point", "coordinates": [ -73.407424990999971, -3.752790794999953 ] } },
    { "type": "Feature", "properties": { "CODLOCAL": "365387", "NOMCPSIG": "SAN PEDRO", "FUENTE_LOC": "MED_GPS", "FTE_LOCD": "SIGMED16", "X_LONGITUD": -73.335487879, "Y_LATITUD": -3.752656322, "CORD_YX": "-3.75265632199995-73.335487879", "NALT_LOCAL": 90, "CEN_EDU_L": "60095", "CODCPSIG": "240577" }, "geometry": { "type": "Point", "coordinates": [ -73.33548787899997, -3.75265632199995 ] } },
    { "type": "Feature", "properties": { "CODLOCAL": "366301", "NOMCPSIG": "LOBOYACU", "FUENTE_LOC": "MED_GPS", "FTE_LOCD": "SIGMED16", "X_LONGITUD": -73.390341444000001, "Y_LATITUD": -3.750579948, "CORD_YX": "-3.75057994799994-73.3903414439999", "NALT_LOCAL": 98, "CEN_EDU_L": "601385", "CODCPSIG": "613340" }, "geometry": { "type": "Point", "coordinates": [ -73.390341443999944, -3.750579947999938 ] } },
    { "type": "Feature", "properties": { "CODLOCAL": "365580", "NOMCPSIG": "SAN JOSE DE LUPUNA", "FUENTE_LOC": "MED_GPS", "FTE_LOCD": "SIGMED16", "X_LONGITUD": -73.324351991, "Y_LATITUD": -3.745237748, "CORD_YX": "-3.74523774799997-73.324351991", "NALT_LOCAL": 91, "CEN_EDU_L": "60127", "CODCPSIG": "125012" }, "geometry": { "type": "Point", "coordinates": [ -73.324351990999958, -3.745237747999965 ] } },
    { "type": "Feature", "properties": { "CODLOCAL": "365561", "NOMCPSIG": "SANTA RITA", "FUENTE_LOC": "MED_GPS", "FTE_LOCD": "SIGMED16", "X_LONGITUD": -73.323943514999996, "Y_LATITUD": -3.730903707, "CORD_YX": "-3.73090370699992-73.3239435149999", "NALT_LOCAL": 100, "CEN_EDU_L": "60124", "CODCPSIG": "129235" }, "geometry": { "type": "Point", "coordinates": [ -73.323943514999939, -3.730903706999925 ] } },
    { "type": "Feature", "properties": { "CODLOCAL": "364076", "NOMCPSIG": "SANTA CLARA", "FUENTE_LOC": "MED_GPS", "FTE_LOCD": "SIGMED16", "X_LONGITUD": -73.339727713000002, "Y_LATITUD": -3.785970262, "CORD_YX": "-3.78597026199998-73.3397277129999", "NALT_LOCAL": 92, "CEN_EDU_L": "168 GOTITAS DEL SABER", "CODCPSIG": "128113" }, "geometry": { "type": "Point", "coordinates": [ -73.339727712999945, -3.785970261999978 ] } },
    { "type": "Feature", "properties": { "CODLOCAL": "364948", "NOMCPSIG": "TARAPOTO", "FUENTE_LOC": "MED_GPS", "FTE_LOCD": "SIGMED16", "X_LONGITUD": -73.4058788, "Y_LATITUD": -3.804330062, "CORD_YX": "-3.80433006199996-73.4058788", "NALT_LOCAL": 100, "CEN_EDU_L": "696", "CODCPSIG": "125982" }, "geometry": { "type": "Point", "coordinates": [ -73.405878799999982, -3.804330061999963 ] } },
    { "type": "Feature", "properties": { "CODLOCAL": "113610", "NOMCPSIG": "MONTE CALVARIO", "FUENTE_LOC": "MED_GPS", "FTE_LOCD": "SIGMED14", "X_LONGITUD": -73.71352326, "Y_LATITUD": -3.760932986, "CORD_YX": "-3.76093298599994-73.71352326", "NALT_LOCAL": 93, "CEN_EDU_L": "601626", "CODCPSIG": "618082" }, "geometry": { "type": "Point", "coordinates": [ -73.713523259999988, -3.760932985999943 ] } },
    { "type": "Feature", "properties": { "CODLOCAL": "364934", "NOMCPSIG": "LIBERTAD", "FUENTE_LOC": "MED_GPS", "FTE_LOCD": "SIGMED14", "X_LONGITUD": -73.458501158999994, "Y_LATITUD": -3.818395774, "CORD_YX": "-3.81839577399995-73.458501159", "NALT_LOCAL": 98, "CEN_EDU_L": "695", "CODCPSIG": "124615" }, "geometry": { "type": "Point", "coordinates": [ -73.458501158999979, -3.818395773999953 ] } },
    { "type": "Feature", "properties": { "CODLOCAL": "364953", "NOMCPSIG": "MISHANA", "FUENTE_LOC": "MED_GPS", "FTE_LOCD": "SIGMED14", "X_LONGITUD": -73.491893653999995, "Y_LATITUD": -3.881498504, "CORD_YX": "-3.88149850399998-73.491893654", "NALT_LOCAL": 95, "CEN_EDU_L": "697", "CODCPSIG": "115735" }, "geometry": { "type": "Point", "coordinates": [ -73.491893653999966, -3.881498503999978 ] } },
    { "type": "Feature", "properties": { "CODLOCAL": "364180", "NOMCPSIG": "SAMITO", "FUENTE_LOC": "MED_GPS", "FTE_LOCD": "SIGMED14", "X_LONGITUD": -73.612766647000001, "Y_LATITUD": -3.865642703, "CORD_YX": "-3.86564270299994-73.6127666469999", "NALT_LOCAL": 94, "CEN_EDU_L": "315", "CODCPSIG": "115325" }, "geometry": { "type": "Point", "coordinates": [ -73.612766646999944, -3.865642702999935 ] } },
    { "type": "Feature", "properties": { "CODLOCAL": "364279", "NOMCPSIG": "SANTO TOMAS", "FUENTE_LOC": "MED_GPS", "FTE_LOCD": "SIGMED14", "X_LONGITUD": -73.341479785000004, "Y_LATITUD": -3.805687659, "CORD_YX": "-3.80568765899994-73.3414797849999", "NALT_LOCAL": 93, "CEN_EDU_L": "330", "CODCPSIG": "121057" }, "geometry": { "type": "Point", "coordinates": [ -73.341479784999933, -3.805687658999943 ] } },
    { "type": "Feature", "properties": { "CODLOCAL": "364383", "NOMCPSIG": "PUERTO ALMENDRA", "FUENTE_LOC": "MED_GPS", "FTE_LOCD": "SIGMED14", "X_LONGITUD": -73.377982305000003, "Y_LATITUD": -3.8316899, "CORD_YX": "-3.83168989999996-73.377982305", "NALT_LOCAL": 95, "CEN_EDU_L": "398", "CODCPSIG": "131916" }, "geometry": { "type": "Point", "coordinates": [ -73.377982304999989, -3.831689899999958 ] } },
    { "type": "Feature", "properties": { "CODLOCAL": "364401", "NOMCPSIG": "SANTA ISABEL DE ZUNGARO COCHA", "FUENTE_LOC": "MED_GPS", "FTE_LOCD": "SIGMED14", "X_LONGITUD": -73.354404024999994, "Y_LATITUD": -3.828432617, "CORD_YX": "-3.82843261699998-73.354404025", "NALT_LOCAL": 94, "CEN_EDU_L": "402", "CODCPSIG": "124523" }, "geometry": { "type": "Point", "coordinates": [ -73.354404024999951, -3.828432616999976 ] } },
    { "type": "Feature", "properties": { "CODLOCAL": "364444", "NOMCPSIG": "LLANCHAMA", "FUENTE_LOC": "MED_GPS", "FTE_LOCD": "SIGMED14", "X_LONGITUD": -73.409757301, "Y_LATITUD": -3.857951231, "CORD_YX": "-3.85795123099996-73.409757301", "NALT_LOCAL": 93, "CEN_EDU_L": "447", "CODCPSIG": "121353" }, "geometry": { "type": "Point", "coordinates": [ -73.409757300999956, -3.857951230999959 ] } },
    { "type": "Feature", "properties": { "CODLOCAL": "364509", "NOMCPSIG": "NINA RUMI", "FUENTE_LOC": "MED_GPS", "FTE_LOCD": "SIGMED14", "X_LONGITUD": -73.38608228, "Y_LATITUD": -3.844726742, "CORD_YX": "-3.84472674199998-73.38608228", "NALT_LOCAL": 92, "CEN_EDU_L": "481", "CODCPSIG": "120620" }, "geometry": { "type": "Point", "coordinates": [ -73.386082279999982, -3.844726741999978 ] } },
    { "type": "Feature", "properties": { "CODLOCAL": "365231", "NOMCPSIG": "SAMITO", "FUENTE_LOC": "MED_GPS", "FTE_LOCD": "SIGMED14", "X_LONGITUD": -73.613311561000003, "Y_LATITUD": -3.865554057, "CORD_YX": "-3.86555405699994-73.613311561", "NALT_LOCAL": 94, "CEN_EDU_L": "60029", "CODCPSIG": "115325" }, "geometry": { "type": "Point", "coordinates": [ -73.613311560999989, -3.86555405699994 ] } },
    { "type": "Feature", "properties": { "CODLOCAL": "365368", "NOMCPSIG": "SANTO TOMAS", "FUENTE_LOC": "MED_GPS", "FTE_LOCD": "SIGMED14", "X_LONGITUD": -73.340784827999997, "Y_LATITUD": -3.80518985, "CORD_YX": "-3.80518984999998-73.340784828", "NALT_LOCAL": 93, "CEN_EDU_L": "60093 JOSE OLAYA BALANDRA", "CODCPSIG": "121057" }, "geometry": { "type": "Point", "coordinates": [ -73.340784827999983, -3.805189849999977 ] } },
    { "type": "Feature", "properties": { "CODLOCAL": "365373", "NOMCPSIG": "SANTA ISABEL DE ZUNGARO COCHA", "FUENTE_LOC": "MED_GPS", "FTE_LOCD": "SIGMED14", "X_LONGITUD": -73.355176627999995, "Y_LATITUD": -3.828828389, "CORD_YX": "-3.82882838899997-73.355176628", "NALT_LOCAL": 97, "CEN_EDU_L": "60094", "CODCPSIG": "124523" }, "geometry": { "type": "Point", "coordinates": [ -73.355176627999981, -3.828828388999966 ] } },
    { "type": "Feature", "properties": { "CODLOCAL": "365448", "NOMCPSIG": "LLANCHAMA", "FUENTE_LOC": "MED_GPS", "FTE_LOCD": "SIGMED14", "X_LONGITUD": -73.409587810999994, "Y_LATITUD": -3.857586463, "CORD_YX": "-3.85758646299996-73.4095878109999", "NALT_LOCAL": 91, "CEN_EDU_L": "60103", "CODCPSIG": "121353" }, "geometry": { "type": "Point", "coordinates": [ -73.409587810999938, -3.857586462999961 ] } },
    { "type": "Feature", "properties": { "CODLOCAL": "365575", "NOMCPSIG": "YARINA", "FUENTE_LOC": "MED_GPS", "FTE_LOCD": "SIGMED14", "X_LONGITUD": -73.560943132000006, "Y_LATITUD": -3.843008396, "CORD_YX": "-3.84300839599996-73.560943132", "NALT_LOCAL": 96, "CEN_EDU_L": "60125", "CODCPSIG": "561864" }, "geometry": { "type": "Point", "coordinates": [ -73.560943131999977, -3.843008395999959 ] } },
    { "type": "Feature", "properties": { "CODLOCAL": "365603", "NOMCPSIG": "SHIRIARA", "FUENTE_LOC": "MED_GPS", "FTE_LOCD": "SIGMED14", "X_LONGITUD": -73.494832545999998, "Y_LATITUD": -3.833445973, "CORD_YX": "-3.83344597299993-73.4948325459999", "NALT_LOCAL": 94, "CEN_EDU_L": "60129", "CODCPSIG": "311268" }, "geometry": { "type": "Point", "coordinates": [ -73.494832545999941, -3.833445972999925 ] } },
    { "type": "Feature", "properties": { "CODLOCAL": "365764", "NOMCPSIG": "LIBERTAD", "FUENTE_LOC": "MED_GPS", "FTE_LOCD": "SIGMED14", "X_LONGITUD": -73.458318047999995, "Y_LATITUD": -3.818083439, "CORD_YX": "-3.81808343899996-73.458318048", "NALT_LOCAL": 96, "CEN_EDU_L": "60744 INGENIERA CARMELA BAOS RIOS", "CODCPSIG": "124615" }, "geometry": { "type": "Point", "coordinates": [ -73.458318047999967, -3.818083438999963 ] } },
    { "type": "Feature", "properties": { "CODLOCAL": "365797", "NOMCPSIG": "NINA RUMI", "FUENTE_LOC": "MED_GPS", "FTE_LOCD": "SIGMED14", "X_LONGITUD": -73.386898853000005, "Y_LATITUD": -3.844741856, "CORD_YX": "-3.84474185599993-73.3868988529999", "NALT_LOCAL": 89, "CEN_EDU_L": "60778", "CODCPSIG": "120620" }, "geometry": { "type": "Point", "coordinates": [ -73.386898852999934, -3.844741855999928 ] } },
    { "type": "Feature", "properties": { "CODLOCAL": "365844", "NOMCPSIG": "MISHANA", "FUENTE_LOC": "MED_GPS", "FTE_LOCD": "SIGMED14", "X_LONGITUD": -73.491513213999994, "Y_LATITUD": -3.881252736, "CORD_YX": "-3.88125273599996-73.491513214", "NALT_LOCAL": 91, "CEN_EDU_L": "60848", "CODCPSIG": "115735" }, "geometry": { "type": "Point", "coordinates": [ -73.491513213999951, -3.881252735999965 ] } },
    { "type": "Feature", "properties": { "CODLOCAL": "365877", "NOMCPSIG": "PUERTO ALMENDRA", "FUENTE_LOC": "MED_GPS", "FTE_LOCD": "SIGMED14", "X_LONGITUD": -73.37813769, "Y_LATITUD": -3.831408044, "CORD_YX": "-3.83140804399994-73.37813769", "NALT_LOCAL": 94, "CEN_EDU_L": "60898", "CODCPSIG": "131916" }, "geometry": { "type": "Point", "coordinates": [ -73.37813768999996, -3.831408043999943 ] } },
    { "type": "Feature", "properties": { "CODLOCAL": "365896", "NOMCPSIG": "LAGUNAS", "FUENTE_LOC": "MED_GPS", "FTE_LOCD": "SIGMED14", "X_LONGITUD": -73.583503284000003, "Y_LATITUD": -3.856360139, "CORD_YX": "-3.85636013899995-73.583503284", "NALT_LOCAL": 99, "CEN_EDU_L": "60926", "CODCPSIG": "126236" }, "geometry": { "type": "Point", "coordinates": [ -73.58350328399996, -3.856360138999946 ] } },
    { "type": "Feature", "properties": { "CODLOCAL": "365957", "NOMCPSIG": "MARAVILLA", "FUENTE_LOC": "MED_GPS", "FTE_LOCD": "SIGMED14", "X_LONGITUD": -73.572763843000004, "Y_LATITUD": -3.859108722, "CORD_YX": "-3.85910872199997-73.572763843", "NALT_LOCAL": 94, "CEN_EDU_L": "60975 JOSE CARLOS MARIATEGUI", "CODCPSIG": "522093" }, "geometry": { "type": "Point", "coordinates": [ -73.572763842999962, -3.859108721999974 ] } },
    { "type": "Feature", "properties": { "CODLOCAL": "366462", "NOMCPSIG": "SAN MARTIN", "FUENTE_LOC": "MED_GPS", "FTE_LOCD": "SIGMED14", "X_LONGITUD": -73.457195256999995, "Y_LATITUD": -3.875679409, "CORD_YX": "-3.87567940899993-73.457195257", "NALT_LOCAL": 90, "CEN_EDU_L": "601450", "CODCPSIG": "655671" }, "geometry": { "type": "Point", "coordinates": [ -73.457195256999967, -3.875679408999929 ] } },
    { "type": "Feature", "properties": { "CODLOCAL": "366546", "NOMCPSIG": "PORVENIR", "FUENTE_LOC": "MED_GPS", "FTE_LOCD": "SIGMED14", "X_LONGITUD": -73.55788293000001, "Y_LATITUD": -3.900781373, "CORD_YX": "-3.90078137299997-73.5578829299999", "NALT_LOCAL": 100, "CEN_EDU_L": "601505", "CODCPSIG": "560386" }, "geometry": { "type": "Point", "coordinates": [ -73.557882929999948, -3.900781372999973 ] } },
    { "type": "Feature", "properties": { "CODLOCAL": "366792", "NOMCPSIG": "SAN JUAN DE YUTO", "FUENTE_LOC": "MED_GPS", "FTE_LOCD": "SIGMED14", "X_LONGITUD": -73.549708733000003, "Y_LATITUD": -3.90177809, "CORD_YX": "-3.90177808999994-73.549708733", "NALT_LOCAL": 104, "CEN_EDU_L": "6010232", "CODCPSIG": "311100" }, "geometry": { "type": "Point", "coordinates": [ -73.549708732999989, -3.901778089999937 ] } },
    { "type": "Feature", "properties": { "CODLOCAL": "368055", "NOMCPSIG": "SANTA MARIA DEL ALTO NANAY", "FUENTE_LOC": "MED_GPS", "FTE_LOCD": "SIGMED14", "X_LONGITUD": -73.698627375000001, "Y_LATITUD": -3.889918196, "CORD_YX": "-3.88991819599994-73.6986273749999", "NALT_LOCAL": 99, "CEN_EDU_L": "399", "CODCPSIG": "112969" }, "geometry": { "type": "Point", "coordinates": [ -73.698627374999944, -3.88991819599994 ] } },
    { "type": "Feature", "properties": { "CODLOCAL": "368060", "NOMCPSIG": "DIAMANTE AZUL", "FUENTE_LOC": "MED_GPS", "FTE_LOCD": "SIGMED14", "X_LONGITUD": -73.779636943, "Y_LATITUD": -3.900033341, "CORD_YX": "-3.90003334099993-73.779636943", "NALT_LOCAL": 97, "CEN_EDU_L": "546", "CODCPSIG": "222420" }, "geometry": { "type": "Point", "coordinates": [ -73.779636942999957, -3.900033340999926 ] } },
    { "type": "Feature", "properties": { "CODLOCAL": "368079", "NOMCPSIG": "SANTA MARIA DEL ALTO NANAY", "FUENTE_LOC": "MED_GPS", "FTE_LOCD": "SIGMED14", "X_LONGITUD": -73.696112072000005, "Y_LATITUD": -3.887702001, "CORD_YX": "-3.88770200099998-73.6961120719999", "NALT_LOCAL": 92, "CEN_EDU_L": "60189", "CODCPSIG": "112969" }, "geometry": { "type": "Point", "coordinates": [ -73.696112071999949, -3.88770200099998 ] } },
    { "type": "Feature", "properties": { "CODLOCAL": "368084", "NOMCPSIG": "SAN ANTONIO", "FUENTE_LOC": "MED_GPS", "FTE_LOCD": "SIGMED14", "X_LONGITUD": -73.780524963000005, "Y_LATITUD": -3.705862998, "CORD_YX": "-3.70586299799993-73.7805249629999", "NALT_LOCAL": 99, "CEN_EDU_L": "60190", "CODCPSIG": "125247" }, "geometry": { "type": "Point", "coordinates": [ -73.780524962999948, -3.70586299799993 ] } },
    { "type": "Feature", "properties": { "CODLOCAL": "368098", "NOMCPSIG": "DIAMANTE AZUL", "FUENTE_LOC": "MED_GPS", "FTE_LOCD": "SIGMED14", "X_LONGITUD": -73.781006304000002, "Y_LATITUD": -3.900564658, "CORD_YX": "-3.90056465799995-73.781006304", "NALT_LOCAL": 98, "CEN_EDU_L": "60191", "CODCPSIG": "222420" }, "geometry": { "type": "Point", "coordinates": [ -73.781006303999959, -3.900564657999951 ] } },
    { "type": "Feature", "properties": { "CODLOCAL": "368102", "NOMCPSIG": "BUENA VISTA", "FUENTE_LOC": "MED_GPS", "FTE_LOCD": "SIGMED14", "X_LONGITUD": -73.753328851999996, "Y_LATITUD": -3.51145282, "CORD_YX": "-3.51145281999993-73.753328852", "NALT_LOCAL": 100, "CEN_EDU_L": "60897", "CODCPSIG": "521689" }, "geometry": { "type": "Point", "coordinates": [ -73.753328851999981, -3.511452819999931 ] } },
    { "type": "Feature", "properties": { "CODLOCAL": "368116", "NOMCPSIG": "ANGUILLA", "FUENTE_LOC": "MED_GPS", "FTE_LOCD": "SIGMED14", "X_LONGITUD": -73.662597754000004, "Y_LATITUD": -3.912570422, "CORD_YX": "-3.91257042199993-73.662597754", "NALT_LOCAL": 89, "CEN_EDU_L": "601024", "CODCPSIG": "241304" }, "geometry": { "type": "Point", "coordinates": [ -73.662597753999989, -3.912570421999931 ] } },
    { "type": "Feature", "properties": { "CODLOCAL": "368121", "NOMCPSIG": "PISCO", "FUENTE_LOC": "MED_GPS", "FTE_LOCD": "SIGMED14", "X_LONGITUD": -73.713694993000004, "Y_LATITUD": -3.890289603, "CORD_YX": "-3.89028960299993-73.7136949929999", "NALT_LOCAL": 103, "CEN_EDU_L": "601026", "CODCPSIG": "228479" }, "geometry": { "type": "Point", "coordinates": [ -73.713694992999933, -3.890289602999928 ] } },
    { "type": "Feature", "properties": { "CODLOCAL": "368135", "NOMCPSIG": "NUEVO ATALAYA", "FUENTE_LOC": "MED_GPS", "FTE_LOCD": "SIGMED14", "X_LONGITUD": -73.756409098999995, "Y_LATITUD": -3.584864837, "CORD_YX": "-3.58486483699994-73.7564090989999", "NALT_LOCAL": 97, "CEN_EDU_L": "601067", "CODCPSIG": "610015" }, "geometry": { "type": "Point", "coordinates": [ -73.756409098999939, -3.584864836999941 ] } },
    { "type": "Feature", "properties": { "CODLOCAL": "368140", "NOMCPSIG": "SABOYA", "FUENTE_LOC": "MED_GPS", "FTE_LOCD": "SIGMED14", "X_LONGITUD": -73.702619099000003, "Y_LATITUD": -3.820564124, "CORD_YX": "-3.82056412399993-73.7026190989999", "NALT_LOCAL": 95, "CEN_EDU_L": "601068", "CODCPSIG": "213887" }, "geometry": { "type": "Point", "coordinates": [ -73.702619098999946, -3.82056412399993 ] } },
    { "type": "Feature", "properties": { "CODLOCAL": "368159", "NOMCPSIG": "PUCA URCO", "FUENTE_LOC": "MED_GPS", "FTE_LOCD": "SIGMED14", "X_LONGITUD": -74.055593407999993, "Y_LATITUD": -3.8037039, "CORD_YX": "-3.80370389999996-74.0555934079999", "NALT_LOCAL": 96, "CEN_EDU_L": "601069", "CODCPSIG": "120431" }, "geometry": { "type": "Point", "coordinates": [ -74.055593407999936, -3.80370389999996 ] } },
    { "type": "Feature", "properties": { "CODLOCAL": "368164", "NOMCPSIG": "NUEVO PORVENIR", "FUENTE_LOC": "MED_GPS", "FTE_LOCD": "SIGMED14", "X_LONGITUD": -73.761523236000002, "Y_LATITUD": -3.485789914, "CORD_YX": "-3.48578991399995-73.761523236", "NALT_LOCAL": 107, "CEN_EDU_L": "601377", "CODCPSIG": "311219" }, "geometry": { "type": "Point", "coordinates": [ -73.76152323599996, -3.485789913999952 ] } },
    { "type": "Feature", "properties": { "CODLOCAL": "368178", "NOMCPSIG": "AYACUCHO", "FUENTE_LOC": "MED_GPS", "FTE_LOCD": "SIGMED14", "X_LONGITUD": -73.520039505, "Y_LATITUD": -3.830211666, "CORD_YX": "-3.83021166599997-73.5200395049999", "NALT_LOCAL": 100, "CEN_EDU_L": "601399", "CODCPSIG": "622582" }, "geometry": { "type": "Point", "coordinates": [ -73.520039504999943, -3.830211665999968 ] } },
    { "type": "Feature", "properties": { "CODLOCAL": "368183", "NOMCPSIG": "VILLA FLOR", "FUENTE_LOC": "MED_GPS", "FTE_LOCD": "SIGMED14", "X_LONGITUD": -73.810333439000004, "Y_LATITUD": -3.432452138, "CORD_YX": "-3.43245213799997-73.810333439", "NALT_LOCAL": 104, "CEN_EDU_L": "601407", "CODCPSIG": "311443" }, "geometry": { "type": "Point", "coordinates": [ -73.810333438999976, -3.432452137999974 ] } },
    { "type": "Feature", "properties": { "CODLOCAL": "368197", "NOMCPSIG": "SAN JUAN DE RAYA", "FUENTE_LOC": "MED_GPS", "FTE_LOCD": "SIGMED14", "X_LONGITUD": -73.689597903000006, "Y_LATITUD": -3.856051367, "CORD_YX": "-3.85605136699996-73.6895979029999", "NALT_LOCAL": 99, "CEN_EDU_L": "601449", "CODCPSIG": "311331" }, "geometry": { "type": "Point", "coordinates": [ -73.689597902999935, -3.856051366999964 ] } },
    { "type": "Feature", "properties": { "CODLOCAL": "368215", "NOMCPSIG": "EL SALVADOR", "FUENTE_LOC": "MED_GPS", "FTE_LOCD": "SIGMED14", "X_LONGITUD": -73.900059712000001, "Y_LATITUD": -3.891355514, "CORD_YX": "-3.89135551399994-73.900059712", "NALT_LOCAL": 96, "CEN_EDU_L": "6010184", "CODCPSIG": "527684" }, "geometry": { "type": "Point", "coordinates": [ -73.900059711999972, -3.89135551399994 ] } },
    { "type": "Feature", "properties": { "CODLOCAL": "368220", "NOMCPSIG": "SAN JUAN DE UNGURAHUAL", "FUENTE_LOC": "MED_GPS", "FTE_LOCD": "SIGMED14", "X_LONGITUD": -73.810117531000003, "Y_LATITUD": -3.902138488, "CORD_YX": "-3.90213848799993-73.8101175309999", "NALT_LOCAL": 91, "CEN_EDU_L": "6010185 - BILINGUE INTERCULTURAL", "CODCPSIG": "311486" }, "geometry": { "type": "Point", "coordinates": [ -73.810117530999946, -3.902138487999935 ] } },
    { "type": "Feature", "properties": { "CODLOCAL": "368239", "NOMCPSIG": "MIRAFLORES", "FUENTE_LOC": "MED_GPS", "FTE_LOCD": "SIGMED14", "X_LONGITUD": -73.70001208, "Y_LATITUD": -3.778037024, "CORD_YX": "-3.77803702399996-73.70001208", "NALT_LOCAL": 98, "CEN_EDU_L": "6010272", "CODCPSIG": "621358" }, "geometry": { "type": "Point", "coordinates": [ -73.700012079999965, -3.778037023999957 ] } },
    { "type": "Feature", "properties": { "CODLOCAL": "373071", "NOMCPSIG": "PADRE COCHA", "FUENTE_LOC": "MED_GPS", "FTE_LOCD": "SIGMED14", "X_LONGITUD": -73.279207315999997, "Y_LATITUD": -3.698469783, "CORD_YX": "-3.69846978299995-73.2792073159999", "NALT_LOCAL": 96, "CEN_EDU_L": "314", "CODCPSIG": "119510" }, "geometry": { "type": "Point", "coordinates": [ -73.27920731599994, -3.69846978299995 ] } },
    { "type": "Feature", "properties": { "CODLOCAL": "373165", "NOMCPSIG": "SARGENTO LORES", "FUENTE_LOC": "MED_GPS", "FTE_LOCD": "SIGMED14", "X_LONGITUD": -73.399649088999993, "Y_LATITUD": -3.511389448, "CORD_YX": "-3.51138944799993-73.399649089", "NALT_LOCAL": 93, "CEN_EDU_L": "403 MI MUNDO INFANTIL", "CODCPSIG": "513946" }, "geometry": { "type": "Point", "coordinates": [ -73.399649088999979, -3.511389447999932 ] } },
    { "type": "Feature", "properties": { "CODLOCAL": "373245", "NOMCPSIG": "PUNTO ALEGRE", "FUENTE_LOC": "MED_GPS", "FTE_LOCD": "SIGMED14", "X_LONGITUD": -73.425285713999997, "Y_LATITUD": -3.498544293, "CORD_YX": "-3.49854429299995-73.425285714", "NALT_LOCAL": 94, "CEN_EDU_L": "607", "CODCPSIG": "545197" }, "geometry": { "type": "Point", "coordinates": [ -73.425285713999983, -3.498544292999952 ] } },
    { "type": "Feature", "properties": { "CODLOCAL": "373306", "NOMCPSIG": "CENTRO FUERTE", "FUENTE_LOC": "MED_GPS", "FTE_LOCD": "SIGMED14", "X_LONGITUD": -73.327429631000001, "Y_LATITUD": -3.624856611, "CORD_YX": "-3.62485661099993-73.327429631", "NALT_LOCAL": 96, "CEN_EDU_L": "677", "CODCPSIG": "517386" }, "geometry": { "type": "Point", "coordinates": [ -73.327429630999973, -3.624856610999927 ] } },
    { "type": "Feature", "properties": { "CODLOCAL": "373368", "NOMCPSIG": "SARGENTO LORES", "FUENTE_LOC": "MED_GPS", "FTE_LOCD": "SIGMED14", "X_LONGITUD": -73.401023819000002, "Y_LATITUD": -3.511551579, "CORD_YX": "-3.51155157899996-73.401023819", "NALT_LOCAL": 93, "CEN_EDU_L": "60035", "CODCPSIG": "513946" }, "geometry": { "type": "Point", "coordinates": [ -73.401023818999988, -3.511551578999956 ] } },
    { "type": "Feature", "properties": { "CODLOCAL": "373453", "NOMCPSIG": "SANTA ROSA", "FUENTE_LOC": "MED_GPS", "FTE_LOCD": "SIGMED14", "X_LONGITUD": -73.307879228000004, "Y_LATITUD": -3.65130349, "CORD_YX": "-3.65130348999998-73.3078792279999", "NALT_LOCAL": 92, "CEN_EDU_L": "60099", "CODCPSIG": "521314" }, "geometry": { "type": "Point", "coordinates": [ -73.307879227999933, -3.651303489999975 ] } },
    { "type": "Feature", "properties": { "CODLOCAL": "373504", "NOMCPSIG": "PADRE COCHA", "FUENTE_LOC": "MED_GPS", "FTE_LOCD": "SIGMED14", "X_LONGITUD": -73.278468544000006, "Y_LATITUD": -3.698347171, "CORD_YX": "-3.69834717099997-73.278468544", "NALT_LOCAL": 96, "CEN_EDU_L": "60115 MIGUEL GRAU SEMINARIO", "CODCPSIG": "119510" }, "geometry": { "type": "Point", "coordinates": [ -73.278468543999963, -3.698347170999966 ] } },
    { "type": "Feature", "properties": { "CODLOCAL": "373561", "NOMCPSIG": "SAN LUIS DE VISTA ALEGRE", "FUENTE_LOC": "MED_GPS", "FTE_LOCD": "SIGMED14", "X_LONGITUD": -73.387565452999993, "Y_LATITUD": -3.526703472, "CORD_YX": "-3.52670347199995-73.387565453", "NALT_LOCAL": 91, "CEN_EDU_L": "60132", "CODCPSIG": "530759" }, "geometry": { "type": "Point", "coordinates": [ -73.387565452999979, -3.526703471999951 ] } },
    { "type": "Feature", "properties": { "CODLOCAL": "373702", "NOMCPSIG": "MAYNAS", "FUENTE_LOC": "MED_GPS", "FTE_LOCD": "SIGMED14", "X_LONGITUD": -73.444155667000004, "Y_LATITUD": -3.4829702, "CORD_YX": "-3.48297019999995-73.444155667", "NALT_LOCAL": 96, "CEN_EDU_L": "60899", "CODCPSIG": "519512" }, "geometry": { "type": "Point", "coordinates": [ -73.444155666999961, -3.482970199999954 ] } },
    { "type": "Feature", "properties": { "CODLOCAL": "373735", "NOMCPSIG": "ROCA FUERTE", "FUENTE_LOC": "MED_GPS", "FTE_LOCD": "SIGMED14", "X_LONGITUD": -73.338881399000002, "Y_LATITUD": -3.615471089, "CORD_YX": "-3.61547108899993-73.3388813989999", "NALT_LOCAL": 97, "CEN_EDU_L": "60976", "CODCPSIG": "511878" }, "geometry": { "type": "Point", "coordinates": [ -73.338881398999945, -3.615471088999925 ] } },
    { "type": "Feature", "properties": { "CODLOCAL": "373740", "NOMCPSIG": "CENTRO FUERTE", "FUENTE_LOC": "MED_GPS", "FTE_LOCD": "SIGMED14", "X_LONGITUD": -73.327371853000002, "Y_LATITUD": -3.624950552, "CORD_YX": "-3.62495055199997-73.327371853", "NALT_LOCAL": 95, "CEN_EDU_L": "60977", "CODCPSIG": "517386" }, "geometry": { "type": "Point", "coordinates": [ -73.327371852999988, -3.624950551999973 ] } },
    { "type": "Feature", "properties": { "CODLOCAL": "373778", "NOMCPSIG": "PUNTO ALEGRE", "FUENTE_LOC": "MED_GPS", "FTE_LOCD": "SIGMED14", "X_LONGITUD": -73.425714623000005, "Y_LATITUD": -3.498779244, "CORD_YX": "-3.49877924399993-73.425714623", "NALT_LOCAL": 95, "CEN_EDU_L": "601025 JOSE DE SAN MARTIN", "CODCPSIG": "545197" }, "geometry": { "type": "Point", "coordinates": [ -73.425714622999976, -3.498779243999934 ] } },
    { "type": "Feature", "properties": { "CODLOCAL": "373783", "NOMCPSIG": "PUERTO GEN GEN", "FUENTE_LOC": "MED_GPS", "FTE_LOCD": "SIGMED14", "X_LONGITUD": -73.330749475999994, "Y_LATITUD": -3.631044637, "CORD_YX": "-3.63104463699995-73.3307494759999", "NALT_LOCAL": 90, "CEN_EDU_L": "601027", "CODCPSIG": "620348" }, "geometry": { "type": "Point", "coordinates": [ -73.330749475999937, -3.631044636999945 ] } },
    { "type": "Feature", "properties": { "CODLOCAL": "373797", "NOMCPSIG": "NUEVO SAN ANTONIO", "FUENTE_LOC": "MED_GPS", "FTE_LOCD": "SIGMED14", "X_LONGITUD": -73.33343095, "Y_LATITUD": -3.646167903, "CORD_YX": "-3.64616790299993-73.33343095", "NALT_LOCAL": 94, "CEN_EDU_L": "601327", "CODCPSIG": "626921" }, "geometry": { "type": "Point", "coordinates": [ -73.333430949999979, -3.646167902999935 ] } },
    { "type": "Feature", "properties": { "CODLOCAL": "373839", "NOMCPSIG": "NUEVA PRIMAVERA", "FUENTE_LOC": "GPS_OTRAS_FUENTES", "FTE_LOCD": "CIE13", "X_LONGITUD": -73.4073, "Y_LATITUD": -3.7024, "CORD_YX": "-3.70239999999995-73.4073", "NALT_LOCAL": 102, "CEN_EDU_L": "601451", "CODCPSIG": "622694" }, "geometry": { "type": "Point", "coordinates": [ -73.4073, -3.7024 ] } },
    { "type": "Feature", "properties": { "CODLOCAL": "373938", "NOMCPSIG": "PUERTO ALICIA", "FUENTE_LOC": "MED_GPS", "FTE_LOCD": "SIGMED14", "X_LONGITUD": -73.37711554000001, "Y_LATITUD": -3.528200896, "CORD_YX": "-3.52820089599993-73.37711554", "NALT_LOCAL": 98, "CEN_EDU_L": "601533", "CODCPSIG": "616524" }, "geometry": { "type": "Point", "coordinates": [ -73.377115539999977, -3.52820089599993 ] } },
    { "type": "Feature", "properties": { "CODLOCAL": "373976", "NOMCPSIG": "UNION FAMILIAR", "FUENTE_LOC": "MED_GPS", "FTE_LOCD": "SIGMED14", "X_LONGITUD": -73.381064605000006, "Y_LATITUD": -3.545420033, "CORD_YX": "-3.54542003299997-73.3810646049999", "NALT_LOCAL": 96, "CEN_EDU_L": "6010122", "CODCPSIG": "621541" }, "geometry": { "type": "Point", "coordinates": [ -73.381064604999949, -3.545420032999971 ] } },
    { "type": "Feature", "properties": { "CODLOCAL": "373981", "NOMCPSIG": "NUEVA YORK", "FUENTE_LOC": "MED_GPS", "FTE_LOCD": "SIGMED14", "X_LONGITUD": -73.466978076999993, "Y_LATITUD": -3.453230329, "CORD_YX": "-3.45323032899995-73.466978077", "NALT_LOCAL": 104, "CEN_EDU_L": "6010123", "CODCPSIG": "512061" }, "geometry": { "type": "Point", "coordinates": [ -73.466978076999965, -3.45323032899995 ] } },
    { "type": "Feature", "properties": { "CODLOCAL": "374004", "NOMCPSIG": "HIPOLITO UNANUE", "FUENTE_LOC": "MED_GPS", "FTE_LOCD": "SIGMED14", "X_LONGITUD": -73.348682304999997, "Y_LATITUD": -3.607036365, "CORD_YX": "-3.60703636499994-73.348682305", "NALT_LOCAL": 95, "CEN_EDU_L": "6010186", "CODCPSIG": "549278" }, "geometry": { "type": "Point", "coordinates": [ -73.348682304999954, -3.607036364999942 ] } },
    { "type": "Feature", "properties": { "CODLOCAL": "506349", "NOMCPSIG": "ALMIRANTE MIGUEL GRAU", "FUENTE_LOC": "MED_GPS", "FTE_LOCD": "SIGMED14", "X_LONGITUD": -73.373151102999998, "Y_LATITUD": -3.570319547, "CORD_YX": "-3.57031954699994-73.3731511029999", "NALT_LOCAL": 87, "CEN_EDU_L": "601562 ALMIRANTE MIGUEL GRAU", "CODCPSIG": "539381" }, "geometry": { "type": "Point", "coordinates": [ -73.373151102999941, -3.57031954699994 ] } },
    { "type": "Feature", "properties": { "CODLOCAL": "554731", "NOMCPSIG": "PADRE COCHA", "FUENTE_LOC": "MED_GPS", "FTE_LOCD": "SIGMED14", "X_LONGITUD": -73.283149007000006, "Y_LATITUD": -3.702724488, "CORD_YX": "-3.70272448799994-73.283149007", "NALT_LOCAL": 103, "CEN_EDU_L": "601634", "CODCPSIG": "119510" }, "geometry": { "type": "Point", "coordinates": [ -73.283149006999963, -3.702724487999944 ] } },
    { "type": "Feature", "properties": { "CODLOCAL": "559564", "NOMCPSIG": "SANTO TOMAS", "FUENTE_LOC": "MED_GPS", "FTE_LOCD": "SIGMED14", "X_LONGITUD": -73.336111188999993, "Y_LATITUD": -3.795034445, "CORD_YX": "-3.79503444499994-73.336111189", "NALT_LOCAL": 92, "CEN_EDU_L": "601693", "CODCPSIG": "121057" }, "geometry": { "type": "Point", "coordinates": [ -73.336111188999951, -3.795034444999942 ] } },
    { "type": "Feature", "properties": { "CODLOCAL": "610261", "NOMCPSIG": "FLOR DE AGOSTO", "FUENTE_LOC": "MED_GPS", "FTE_LOCD": "SIGMED14", "X_LONGITUD": -73.345495239000002, "Y_LATITUD": -3.633265734, "CORD_YX": "-3.63326573399996-73.3454952389999", "NALT_LOCAL": 90, "CEN_EDU_L": "601666", "CODCPSIG": "620451" }, "geometry": { "type": "Point", "coordinates": [ -73.345495238999945, -3.633265733999963 ] } },
    { "type": "Feature", "properties": { "CODLOCAL": "740205", "NOMCPSIG": "NUEVO ATALAYA", "FUENTE_LOC": "MED_GPS", "FTE_LOCD": "SIGMED14", "X_LONGITUD": -73.755665253999993, "Y_LATITUD": -3.584397109, "CORD_YX": "-3.58439710899995-73.755665254", "NALT_LOCAL": 110, "CEN_EDU_L": "767 - BILINGUE INTERCULTURAL", "CODCPSIG": "610015" }, "geometry": { "type": "Point", "coordinates": [ -73.75566525399995, -3.584397108999951 ] } },
    { "type": "Feature", "properties": { "CODLOCAL": "740615", "NOMCPSIG": "ALBARENGA", "FUENTE_LOC": "MED_GPS", "FTE_LOCD": "SIGMED14", "X_LONGITUD": -74.565482489000004, "Y_LATITUD": -3.404919272, "CORD_YX": "-3.40491927199997-74.565482489", "NALT_LOCAL": 109, "CEN_EDU_L": "601569", "CODCPSIG": "535459" }, "geometry": { "type": "Point", "coordinates": [ -74.565482488999976, -3.404919271999972 ] } },
    { "type": "Feature", "properties": { "CODLOCAL": "559578", "NOMCPSIG": "SANTO TOMAS", "FUENTE_LOC": "MED_GPS", "FTE_LOCD": "SIGMED14", "X_LONGITUD": -73.336111188999993, "Y_LATITUD": -3.795034445, "CORD_YX": "-3.79503444499994-73.336111189", "NALT_LOCAL": 92, "CEN_EDU_L": "895", "CODCPSIG": "121057" }, "geometry": { "type": "Point", "coordinates": [ -73.336111188999951, -3.795034444999942 ] } },
    { "type": "Feature", "properties": { "CODLOCAL": "740658", "NOMCPSIG": "SAN ANTONIO", "FUENTE_LOC": "MED_GPS", "FTE_LOCD": "SIGMED14", "X_LONGITUD": -73.780524962000001, "Y_LATITUD": -3.705862998, "CORD_YX": "-3.70586299799993-73.780524962", "NALT_LOCAL": 99, "CEN_EDU_L": "766", "CODCPSIG": "125247" }, "geometry": { "type": "Point", "coordinates": [ -73.780524961999959, -3.70586299799993 ] } },
    { "type": "Feature", "properties": { "CODLOCAL": "364566", "NOMCPSIG": "YARINA", "FUENTE_LOC": "MED_GPS", "FTE_LOCD": "SIGMED14", "X_LONGITUD": -73.560943132000006, "Y_LATITUD": -3.843008396, "CORD_YX": "-3.84300839599996-73.560943132", "NALT_LOCAL": 96, "CEN_EDU_L": "531", "CODCPSIG": "561864" }, "geometry": { "type": "Point", "coordinates": [ -73.560943131999977, -3.843008395999959 ] } },
    { "type": "Feature", "properties": { "CODLOCAL": "364571", "NOMCPSIG": "LAGUNAS", "FUENTE_LOC": "MED_GPS", "FTE_LOCD": "SIGMED14", "X_LONGITUD": -73.583503284000003, "Y_LATITUD": -3.856360139, "CORD_YX": "-3.85636013899995-73.583503284", "NALT_LOCAL": 99, "CEN_EDU_L": "532", "CODCPSIG": "126236" }, "geometry": { "type": "Point", "coordinates": [ -73.58350328399996, -3.856360138999946 ] } },
    { "type": "Feature", "properties": { "CODLOCAL": "646024", "NOMCPSIG": "AYACUCHO", "FUENTE_LOC": "MED_GPS", "FTE_LOCD": "SIGMED14", "X_LONGITUD": -73.520039505, "Y_LATITUD": -3.830211666, "CORD_YX": "-3.83021166599997-73.5200395049999", "NALT_LOCAL": 100, "CEN_EDU_L": "769", "CODCPSIG": "622582" }, "geometry": { "type": "Point", "coordinates": [ -73.520039504999943, -3.830211665999968 ] } },
    { "type": "Feature", "properties": { "CODLOCAL": "813126", "NOMCPSIG": "15 DE ABRIL", "FUENTE_LOC": "GPS_OTRAS_FUENTES", "FTE_LOCD": "OSEE18", "X_LONGITUD": -73.59819757, "Y_LATITUD": -3.92109758, "CORD_YX": "-3.92109757999998-73.59819757", "NALT_LOCAL": 96, "CEN_EDU_L": "601395", "CODCPSIG": "617859" }, "geometry": { "type": "Point", "coordinates": [ -73.598197569999968, -3.92109757999998 ] } },
    { "type": "Feature", "properties": { "CODLOCAL": "374037", "NOMCPSIG": "FRAY MARTIN", "FUENTE_LOC": "GPS_OTRAS_FUENTES", "FTE_LOCD": "OSEE19", "X_LONGITUD": -73.38192025, "Y_LATITUD": -3.69076908, "CORD_YX": "-3.69076907999994-73.38192025", "NALT_LOCAL": 96, "CEN_EDU_L": "6010228", "CODCPSIG": "621637" }, "geometry": { "type": "Point", "coordinates": [ -73.381920249999951, -3.690769079999939 ] } },
    { "type": "Feature", "properties": { "CODLOCAL": "3882672", "NOMCPSIG": "NUEVO VERSALLES", "FUENTE_LOC": "UBICACION_WEB", "FTE_LOCD": "REV_PROG2019", "X_LONGITUD": -73.262831, "Y_LATITUD": -3.722492, "CORD_YX": "-3.72249199999993-73.2628309999999", "NALT_LOCAL": 90, "CEN_EDU_L": "ARBOLITO 1", "CODCPSIG": "552999" }, "geometry": { "type": "Point", "coordinates": [ -73.262831, -3.722492 ] } },
    { "type": "Feature", "properties": { "CODLOCAL": "3882654", "NOMCPSIG": "NUEVO VERSALLES", "FUENTE_LOC": "UBICACION_WEB", "FTE_LOCD": "REV_PROG2019", "X_LONGITUD": -73.262831, "Y_LATITUD": -3.722492, "CORD_YX": "-3.72249199999993-73.2628309999999", "NALT_LOCAL": 90, "CEN_EDU_L": "ARBOLITO 2", "CODCPSIG": "552999" }, "geometry": { "type": "Point", "coordinates": [ -73.262831, -3.722492 ] } },
    { "type": "Feature", "properties": { "CODLOCAL": "3946956", "NOMCPSIG": "SANTO TOMAS", "FUENTE_LOC": "UBICACION_WEB", "FTE_LOCD": "REV_PROG2019", "X_LONGITUD": -73.361761271999995, "Y_LATITUD": -3.578313321, "CORD_YX": "-3.57831332099994-73.361761272", "NALT_LOCAL": 96, "CEN_EDU_L": "LORITO 1", "CODCPSIG": "652680" }, "geometry": { "type": "Point", "coordinates": [ -73.361761271999967, -3.578313320999939 ] } },
    { "type": "Feature", "properties": { "CODLOCAL": "3946957", "NOMCPSIG": "MAYNAS", "FUENTE_LOC": "UBICACION_WEB", "FTE_LOCD": "REV_PROG2019", "X_LONGITUD": -73.444856107000007, "Y_LATITUD": -3.482402866, "CORD_YX": "-3.48240286599997-73.444856107", "NALT_LOCAL": 96, "CEN_EDU_L": "LORITO 2", "CODCPSIG": "519512" }, "geometry": { "type": "Point", "coordinates": [ -73.444856106999964, -3.482402865999973 ] } },
    { "type": "Feature", "properties": { "CODLOCAL": "1775708", "NOMCPSIG": "PUERTO ALICIA", "FUENTE_LOC": "UBICACION_WEB", "FTE_LOCD": "REV_PROG2019", "X_LONGITUD": -73.378044962999994, "Y_LATITUD": -3.527534967, "CORD_YX": "-3.52753496699995-73.378044963", "NALT_LOCAL": 94, "CEN_EDU_L": "LORITO 4", "CODCPSIG": "616524" }, "geometry": { "type": "Point", "coordinates": [ -73.378044962999979, -3.527534966999951 ] } },
    { "type": "Feature", "properties": { "CODLOCAL": "1778806", "NOMCPSIG": "SARGENTO LORES", "FUENTE_LOC": "UBICACION_WEB", "FTE_LOCD": "REV_PROG2019", "X_LONGITUD": -73.399926424, "Y_LATITUD": -3.5105297, "CORD_YX": "-3.51052969999995-73.3999264239999", "NALT_LOCAL": 95, "CEN_EDU_L": "SUEﾃ選TO 1", "CODCPSIG": "513946" }, "geometry": { "type": "Point", "coordinates": [ -73.399926423999943, -3.51052969999995 ] } },
    { "type": "Feature", "properties": { "CODLOCAL": "1778807", "NOMCPSIG": "CENTRO FUERTE", "FUENTE_LOC": "UBICACION_WEB", "FTE_LOCD": "REV_PROG2019", "X_LONGITUD": -73.327479959000001, "Y_LATITUD": -3.624463286, "CORD_YX": "-3.62446328599998-73.327479959", "NALT_LOCAL": 95, "CEN_EDU_L": "SUEﾃ選TO 2", "CODCPSIG": "517386" }, "geometry": { "type": "Point", "coordinates": [ -73.327479958999959, -3.62446328599998 ] } },
    { "type": "Feature", "properties": { "CODLOCAL": "1778808", "NOMCPSIG": "PUNTO ALEGRE", "FUENTE_LOC": "UBICACION_WEB", "FTE_LOCD": "REV_PROG2019", "X_LONGITUD": -73.426812886999997, "Y_LATITUD": -3.498991, "CORD_YX": "-3.49899099999993-73.426812887", "NALT_LOCAL": 95, "CEN_EDU_L": "SUEﾃ選TO 3", "CODCPSIG": "545197" }, "geometry": { "type": "Point", "coordinates": [ -73.426812886999983, -3.498991 ] } },
    { "type": "Feature", "properties": { "CODLOCAL": "1778809", "NOMCPSIG": "PUNTO ALEGRE", "FUENTE_LOC": "UBICACION_WEB", "FTE_LOCD": "REV_PROG2019", "X_LONGITUD": -73.426818252000004, "Y_LATITUD": -3.498980291, "CORD_YX": "-3.49898029099995-73.426818252", "NALT_LOCAL": 95, "CEN_EDU_L": "SUEﾃ選TO 4", "CODCPSIG": "545197" }, "geometry": { "type": "Point", "coordinates": [ -73.426818251999975, -3.498980290999953 ] } },
    { "type": "Feature", "properties": { "CODLOCAL": "1769015", "NOMCPSIG": "SANTO TOMAS", "FUENTE_LOC": "UBICACION_WEB", "FTE_LOCD": "REV_PROG2019", "X_LONGITUD": -73.338745235999994, "Y_LATITUD": -3.800582205, "CORD_YX": "-3.80058220499996-73.338745236", "NALT_LOCAL": 92, "CEN_EDU_L": "CONEJITO 6", "CODCPSIG": "121057" }, "geometry": { "type": "Point", "coordinates": [ -73.338745235999966, -3.800582204999955 ] } },
    { "type": "Feature", "properties": { "CODLOCAL": "1769016", "NOMCPSIG": "SANTO TOMAS", "FUENTE_LOC": "UBICACION_WEB", "FTE_LOCD": "REV_PROG2019", "X_LONGITUD": -73.338734508000002, "Y_LATITUD": -3.800608968, "CORD_YX": "-3.80060896799995-73.338734508", "NALT_LOCAL": 92, "CEN_EDU_L": "CONEJITO 7", "CODCPSIG": "121057" }, "geometry": { "type": "Point", "coordinates": [ -73.338734507999959, -3.800608967999949 ] } },
    { "type": "Feature", "properties": { "CODLOCAL": "3964959", "NOMCPSIG": "SAN JUAN", "FUENTE_LOC": "UBICACION_WEB", "FTE_LOCD": "REV_PROG2019", "X_LONGITUD": -73.404421806000002, "Y_LATITUD": -3.612177279, "CORD_YX": "-3.61217727899998-73.404421806", "NALT_LOCAL": 94, "CEN_EDU_L": "LORITO 3", "CODCPSIG": "540063" }, "geometry": { "type": "Point", "coordinates": [ -73.404421805999959, -3.61217727899998 ] } },
    { "type": "Feature", "properties": { "CODLOCAL": "364712", "NOMCPSIG": "SHIRIARA", "FUENTE_LOC": "UBICACION_WEB", "FTE_LOCD": "EDITOR_UGEL19", "X_LONGITUD": -73.49512, "Y_LATITUD": -3.83307, "CORD_YX": "-3.83306999999996-73.49512", "NALT_LOCAL": 94, "CEN_EDU_L": "590", "CODCPSIG": "311268" }, "geometry": { "type": "Point", "coordinates": [ -73.49512, -3.83307 ] } },
    { "type": "Feature", "properties": { "CODLOCAL": "129244", "NOMCPSIG": "NUEVA PRIMAVERA", "FUENTE_LOC": "UBICACION_WEB", "FTE_LOCD": "EDITOR_UGEL19", "X_LONGITUD": -73.40747, "Y_LATITUD": -3.70085, "CORD_YX": "-3.70084999999995-73.40747", "NALT_LOCAL": 102, "CEN_EDU_L": "837", "CODCPSIG": "622694" }, "geometry": { "type": "Point", "coordinates": [ -73.40747, -3.70085 ] } },
    { "type": "Feature", "properties": { "CODLOCAL": "826483", "NOMCPSIG": "8 DE OCTUBRE", "FUENTE_LOC": "UBICACION_WEB", "FTE_LOCD": "EDITOR_UGEL19", "X_LONGITUD": -73.4079, "Y_LATITUD": -3.75261, "CORD_YX": "-3.75260999999995-73.4079", "NALT_LOCAL": 98, "CEN_EDU_L": "601498", "CODCPSIG": "652672" }, "geometry": { "type": "Point", "coordinates": [ -73.4079, -3.75261 ] } },
    { "type": "Feature", "properties": { "CODLOCAL": "826497", "NOMCPSIG": "LOBOYACU", "FUENTE_LOC": "UBICACION_WEB", "FTE_LOCD": "EDITOR_UGEL19", "X_LONGITUD": -73.39067, "Y_LATITUD": -3.75027, "CORD_YX": "-3.75026999999994-73.3906699999999", "NALT_LOCAL": 97, "CEN_EDU_L": "601385", "CODCPSIG": "613340" }, "geometry": { "type": "Point", "coordinates": [ -73.39067, -3.75027 ] } },
    { "type": "Feature", "properties": { "CODLOCAL": "826505", "NOMCPSIG": "TRES UNIDOS", "FUENTE_LOC": "UBICACION_WEB", "FTE_LOCD": "EDITOR_UGEL19", "X_LONGITUD": -73.36674, "Y_LATITUD": -3.74169, "CORD_YX": "-3.74168999999995-73.3667399999999", "NALT_LOCAL": 131, "CEN_EDU_L": "601384", "CODCPSIG": "532135" }, "geometry": { "type": "Point", "coordinates": [ -73.36674, -3.74169 ] } },
    { "type": "Feature", "properties": { "CODLOCAL": "820099", "NOMCPSIG": "MARAVILLA", "FUENTE_LOC": "UBICACION_WEB", "FTE_LOCD": "EDITOR_UGEL19", "X_LONGITUD": -73.57205, "Y_LATITUD": -3.85919, "CORD_YX": "-3.85918999999996-73.5720499999999", "NALT_LOCAL": 91, "CEN_EDU_L": "1023", "CODCPSIG": "522093" }, "geometry": { "type": "Point", "coordinates": [ -73.57205, -3.85919 ] } },
    { "type": "Feature", "properties": { "CODLOCAL": "804971", "NOMCPSIG": "NUEVA VIDA", "FUENTE_LOC": "UBICACION_WEB", "FTE_LOCD": "EDITOR_UGEL19", "X_LONGITUD": -73.28236, "Y_LATITUD": -3.6884, "CORD_YX": "-3.68839999999994-73.28236", "NALT_LOCAL": 105, "CEN_EDU_L": "601627", "CODCPSIG": "684201" }, "geometry": { "type": "Point", "coordinates": [ -73.28236, -3.6884 ] } }
    ]
    }
    